$GPGGA,033451.607,2039.281,N,10323.494,W,1,12,1.0,0.0,M,0.0,M,,*74
$GPGSA,A,3,01,02,03,04,05,06,07,08,09,10,11,12,1.0,1.0,1.0*30
$GPRMC,033451.607,A,2039.281,N,10323.494,W,038.9,112.9,050218,000.0,W*67
$GPGGA,033452.607,2039.277,N,10323.483,W,1,12,1.0,0.0,M,0.0,M,,*78
$GPGSA,A,3,01,02,03,04,05,06,07,08,09,10,11,12,1.0,1.0,1.0*30
$GPRMC,033452.607,A,2039.277,N,10323.483,W,038.9,112.9,050218,000.0,W*6B
$GPGGA,033453.607,2039.273,N,10323.473,W,1,12,1.0,0.0,M,0.0,M,,*72
$GPGSA,A,3,01,02,03,04,05,06,07,08,09,10,11,12,1.0,1.0,1.0*30
$GPRMC,033453.607,A,2039.273,N,10323.473,W,038.9,112.9,050218,000.0,W*61
$GPGGA,033454.607,2039.268,N,10323.462,W,1,12,1.0,0.0,M,0.0,M,,*7F
$GPGSA,A,3,01,02,03,04,05,06,07,08,09,10,11,12,1.0,1.0,1.0*30
$GPRMC,033454.607,A,2039.268,N,10323.462,W,038.9,137.0,050218,000.0,W*62
$GPGGA,033455.607,2039.260,N,10323.455,W,1,12,1.0,0.0,M,0.0,M,,*72
$GPGSA,A,3,01,02,03,04,05,06,07,08,09,10,11,12,1.0,1.0,1.0*30
$GPRMC,033455.607,A,2039.260,N,10323.455,W,038.9,137.0,050218,000.0,W*6F
$GPGGA,033456.607,2039.252,N,10323.447,W,1,12,1.0,0.0,M,0.0,M,,*73
$GPGSA,A,3,01,02,03,04,05,06,07,08,09,10,11,12,1.0,1.0,1.0*30
$GPRMC,033456.607,A,2039.252,N,10323.447,W,038.9,137.0,050218,000.0,W*6E
$GPGGA,033457.607,2039.244,N,10323.439,W,1,12,1.0,0.0,M,0.0,M,,*7C
$GPGSA,A,3,01,02,03,04,05,06,07,08,09,10,11,12,1.0,1.0,1.0*30
$GPRMC,033457.607,A,2039.244,N,10323.439,W,038.9,137.0,050218,000.0,W*61
$GPGGA,033458.607,2039.236,N,10323.432,W,1,12,1.0,0.0,M,0.0,M,,*7D
$GPGSA,A,3,01,02,03,04,05,06,07,08,09,10,11,12,1.0,1.0,1.0*30
$GPRMC,033458.607,A,2039.236,N,10323.432,W,038.9,137.0,050218,000.0,W*60
$GPGGA,033459.607,2039.228,N,10323.424,W,1,12,1.0,0.0,M,0.0,M,,*74
$GPGSA,A,3,01,02,03,04,05,06,07,08,09,10,11,12,1.0,1.0,1.0*30
$GPRMC,033459.607,A,2039.228,N,10323.424,W,038.9,137.0,050218,000.0,W*69
$GPGGA,033500.607,2039.219,N,10323.417,W,1,12,1.0,0.0,M,0.0,M,,*7B
$GPGSA,A,3,01,02,03,04,05,06,07,08,09,10,11,12,1.0,1.0,1.0*30
$GPRMC,033500.607,A,2039.219,N,10323.417,W,038.9,137.0,050218,000.0,W*66
$GPGGA,033501.607,2039.211,N,10323.409,W,1,12,1.0,0.0,M,0.0,M,,*7D
$GPGSA,A,3,01,02,03,04,05,06,07,08,09,10,11,12,1.0,1.0,1.0*30
$GPRMC,033501.607,A,2039.211,N,10323.409,W,038.9,137.0,050218,000.0,W*60
$GPGGA,033502.607,2039.203,N,10323.402,W,1,12,1.0,0.0,M,0.0,M,,*76
$GPGSA,A,3,01,02,03,04,05,06,07,08,09,10,11,12,1.0,1.0,1.0*30
$GPRMC,033502.607,A,2039.203,N,10323.402,W,038.9,137.0,050218,000.0,W*6B
$GPGGA,033503.607,2039.195,N,10323.394,W,1,12,1.0,0.0,M,0.0,M,,*73
$GPGSA,A,3,01,02,03,04,05,06,07,08,09,10,11,12,1.0,1.0,1.0*30
$GPRMC,033503.607,A,2039.195,N,10323.394,W,038.9,137.0,050218,000.0,W*6E
$GPGGA,033504.607,2039.187,N,10323.386,W,1,12,1.0,0.0,M,0.0,M,,*74
$GPGSA,A,3,01,02,03,04,05,06,07,08,09,10,11,12,1.0,1.0,1.0*30
$GPRMC,033504.607,A,2039.187,N,10323.386,W,038.9,137.0,050218,000.0,W*69
$GPGGA,033505.607,2039.179,N,10323.379,W,1,12,1.0,0.0,M,0.0,M,,*74
$GPGSA,A,3,01,02,03,04,05,06,07,08,09,10,11,12,1.0,1.0,1.0*30
$GPRMC,033505.607,A,2039.179,N,10323.379,W,038.9,137.0,050218,000.0,W*69
$GPGGA,033506.607,2039.171,N,10323.371,W,1,12,1.0,0.0,M,0.0,M,,*77
$GPGSA,A,3,01,02,03,04,05,06,07,08,09,10,11,12,1.0,1.0,1.0*30
$GPRMC,033506.607,A,2039.171,N,10323.371,W,038.9,137.0,050218,000.0,W*6A
$GPGGA,033507.607,2039.162,N,10323.364,W,1,12,1.0,0.0,M,0.0,M,,*70
$GPGSA,A,3,01,02,03,04,05,06,07,08,09,10,11,12,1.0,1.0,1.0*30
$GPRMC,033507.607,A,2039.162,N,10323.364,W,038.9,182.6,050218,000.0,W*65
$GPGGA,033508.607,2039.152,N,10323.364,W,1,12,1.0,0.0,M,0.0,M,,*7C
$GPGSA,A,3,01,02,03,04,05,06,07,08,09,10,11,12,1.0,1.0,1.0*30
$GPRMC,033508.607,A,2039.152,N,10323.364,W,038.9,182.6,050218,000.0,W*69
$GPGGA,033509.607,2039.141,N,10323.365,W,1,12,1.0,0.0,M,0.0,M,,*7E
$GPGSA,A,3,01,02,03,04,05,06,07,08,09,10,11,12,1.0,1.0,1.0*30
$GPRMC,033509.607,A,2039.141,N,10323.365,W,038.9,182.6,050218,000.0,W*6B
$GPGGA,033510.607,2039.130,N,10323.365,W,1,12,1.0,0.0,M,0.0,M,,*70
$GPGSA,A,3,01,02,03,04,05,06,07,08,09,10,11,12,1.0,1.0,1.0*30
$GPRMC,033510.607,A,2039.130,N,10323.365,W,038.9,182.6,050218,000.0,W*65
$GPGGA,033511.607,2039.119,N,10323.366,W,1,12,1.0,0.0,M,0.0,M,,*79
$GPGSA,A,3,01,02,03,04,05,06,07,08,09,10,11,12,1.0,1.0,1.0*30
$GPRMC,033511.607,A,2039.119,N,10323.366,W,038.9,254.6,050218,000.0,W*64
$GPGGA,033512.607,2039.116,N,10323.377,W,1,12,1.0,0.0,M,0.0,M,,*75
$GPGSA,A,3,01,02,03,04,05,06,07,08,09,10,11,12,1.0,1.0,1.0*30
$GPRMC,033512.607,A,2039.116,N,10323.377,W,038.9,254.6,050218,000.0,W*68
$GPGGA,033513.607,2039.113,N,10323.388,W,1,12,1.0,0.0,M,0.0,M,,*71
$GPGSA,A,3,01,02,03,04,05,06,07,08,09,10,11,12,1.0,1.0,1.0*30
$GPRMC,033513.607,A,2039.113,N,10323.388,W,038.9,254.6,050218,000.0,W*6C
$GPGGA,033514.607,2039.110,N,10323.399,W,1,12,1.0,0.0,M,0.0,M,,*75
$GPGSA,A,3,01,02,03,04,05,06,07,08,09,10,11,12,1.0,1.0,1.0*30
$GPRMC,033514.607,A,2039.110,N,10323.399,W,038.9,254.6,050218,000.0,W*68
$GPGGA,033515.607,2039.107,N,10323.410,W,1,12,1.0,0.0,M,0.0,M,,*74
$GPGSA,A,3,01,02,03,04,05,06,07,08,09,10,11,12,1.0,1.0,1.0*30
$GPRMC,033515.607,A,2039.107,N,10323.410,W,038.9,254.6,050218,000.0,W*69
$GPGGA,033516.607,2039.104,N,10323.421,W,1,12,1.0,0.0,M,0.0,M,,*76
$GPGSA,A,3,01,02,03,04,05,06,07,08,09,10,11,12,1.0,1.0,1.0*30
$GPRMC,033516.607,A,2039.104,N,10323.421,W,038.9,267.9,050218,000.0,W*64
$GPGGA,033517.607,2039.104,N,10323.432,W,1,12,1.0,0.0,M,0.0,M,,*75
$GPGSA,A,3,01,02,03,04,05,06,07,08,09,10,11,12,1.0,1.0,1.0*30
$GPRMC,033517.607,A,2039.104,N,10323.432,W,038.9,267.9,050218,000.0,W*67
$GPGGA,033518.607,2039.103,N,10323.444,W,1,12,1.0,0.0,M,0.0,M,,*7C
$GPGSA,A,3,01,02,03,04,05,06,07,08,09,10,11,12,1.0,1.0,1.0*30
$GPRMC,033518.607,A,2039.103,N,10323.444,W,038.9,267.9,050218,000.0,W*6E
$GPGGA,033519.607,2039.103,N,10323.455,W,1,12,1.0,0.0,M,0.0,M,,*7D
$GPGSA,A,3,01,02,03,04,05,06,07,08,09,10,11,12,1.0,1.0,1.0*30
$GPRMC,033519.607,A,2039.103,N,10323.455,W,038.9,267.9,050218,000.0,W*6F
$GPGGA,033520.607,2039.102,N,10323.467,W,1,12,1.0,0.0,M,0.0,M,,*77
$GPGSA,A,3,01,02,03,04,05,06,07,08,09,10,11,12,1.0,1.0,1.0*30
$GPRMC,033520.607,A,2039.102,N,10323.467,W,038.9,267.9,050218,000.0,W*65
$GPGGA,033521.607,2039.102,N,10323.478,W,1,12,1.0,0.0,M,0.0,M,,*78
$GPGSA,A,3,01,02,03,04,05,06,07,08,09,10,11,12,1.0,1.0,1.0*30
$GPRMC,033521.607,A,2039.102,N,10323.478,W,038.9,267.9,050218,000.0,W*6A
$GPGGA,033522.607,2039.102,N,10323.490,W,1,12,1.0,0.0,M,0.0,M,,*7D
$GPGSA,A,3,01,02,03,04,05,06,07,08,09,10,11,12,1.0,1.0,1.0*30
$GPRMC,033522.607,A,2039.102,N,10323.490,W,038.9,267.9,050218,000.0,W*6F
$GPGGA,033523.607,2039.101,N,10323.502,W,1,12,1.0,0.0,M,0.0,M,,*75
$GPGSA,A,3,01,02,03,04,05,06,07,08,09,10,11,12,1.0,1.0,1.0*30
$GPRMC,033523.607,A,2039.101,N,10323.502,W,038.9,267.9,050218,000.0,W*67
$GPGGA,033524.607,2039.101,N,10323.513,W,1,12,1.0,0.0,M,0.0,M,,*72
$GPGSA,A,3,01,02,03,04,05,06,07,08,09,10,11,12,1.0,1.0,1.0*30
$GPRMC,033524.607,A,2039.101,N,10323.513,W,038.9,267.9,050218,000.0,W*60
$GPGGA,033525.607,2039.100,N,10323.525,W,1,12,1.0,0.0,M,0.0,M,,*77
$GPGSA,A,3,01,02,03,04,05,06,07,08,09,10,11,12,1.0,1.0,1.0*30
$GPRMC,033525.607,A,2039.100,N,10323.525,W,038.9,267.9,050218,000.0,W*65
$GPGGA,033526.607,2039.100,N,10323.536,W,1,12,1.0,0.0,M,0.0,M,,*76
$GPGSA,A,3,01,02,03,04,05,06,07,08,09,10,11,12,1.0,1.0,1.0*30
$GPRMC,033526.607,A,2039.100,N,10323.536,W,038.9,320.9,050218,000.0,W*66
$GPGGA,033527.607,2039.108,N,10323.543,W,1,12,1.0,0.0,M,0.0,M,,*7D
$GPGSA,A,3,01,02,03,04,05,06,07,08,09,10,11,12,1.0,1.0,1.0*30
$GPRMC,033527.607,A,2039.108,N,10323.543,W,038.9,320.9,050218,000.0,W*6D
$GPGGA,033528.607,2039.117,N,10323.550,W,1,12,1.0,0.0,M,0.0,M,,*7E
$GPGSA,A,3,01,02,03,04,05,06,07,08,09,10,11,12,1.0,1.0,1.0*30
$GPRMC,033528.607,A,2039.117,N,10323.550,W,038.9,320.9,050218,000.0,W*6E
$GPGGA,033529.607,2039.126,N,10323.557,W,1,12,1.0,0.0,M,0.0,M,,*7A
$GPGSA,A,3,01,02,03,04,05,06,07,08,09,10,11,12,1.0,1.0,1.0*30
$GPRMC,033529.607,A,2039.126,N,10323.557,W,038.9,320.9,050218,000.0,W*6A
$GPGGA,033530.607,2039.134,N,10323.564,W,1,12,1.0,0.0,M,0.0,M,,*71
$GPGSA,A,3,01,02,03,04,05,06,07,08,09,10,11,12,1.0,1.0,1.0*30
$GPRMC,033530.607,A,2039.134,N,10323.564,W,038.9,320.9,050218,000.0,W*61
$GPGGA,033531.607,2039.143,N,10323.571,W,1,12,1.0,0.0,M,0.0,M,,*74
$GPGSA,A,3,01,02,03,04,05,06,07,08,09,10,11,12,1.0,1.0,1.0*30
$GPRMC,033531.607,A,2039.143,N,10323.571,W,038.9,320.9,050218,000.0,W*64
$GPGGA,033532.607,2039.151,N,10323.578,W,1,12,1.0,0.0,M,0.0,M,,*7D
$GPGSA,A,3,01,02,03,04,05,06,07,08,09,10,11,12,1.0,1.0,1.0*30
$GPRMC,033532.607,A,2039.151,N,10323.578,W,038.9,359.2,050218,000.0,W*68
$GPGGA,033533.607,2039.162,N,10323.578,W,1,12,1.0,0.0,M,0.0,M,,*7C
$GPGSA,A,3,01,02,03,04,05,06,07,08,09,10,11,12,1.0,1.0,1.0*30
$GPRMC,033533.607,A,2039.162,N,10323.578,W,038.9,359.2,050218,000.0,W*69
$GPGGA,033534.607,2039.173,N,10323.578,W,1,12,1.0,0.0,M,0.0,M,,*7B
$GPGSA,A,3,01,02,03,04,05,06,07,08,09,10,11,12,1.0,1.0,1.0*30
$GPRMC,033534.607,A,2039.173,N,10323.578,W,038.9,359.2,050218,000.0,W*6E
$GPGGA,033535.607,2039.184,N,10323.578,W,1,12,1.0,0.0,M,0.0,M,,*72
$GPGSA,A,3,01,02,03,04,05,06,07,08,09,10,11,12,1.0,1.0,1.0*30
$GPRMC,033535.607,A,2039.184,N,10323.578,W,038.9,359.2,050218,000.0,W*67
$GPGGA,033536.607,2039.195,N,10323.579,W,1,12,1.0,0.0,M,0.0,M,,*70
$GPGSA,A,3,01,02,03,04,05,06,07,08,09,10,11,12,1.0,1.0,1.0*30
$GPRMC,033536.607,A,2039.195,N,10323.579,W,038.9,359.2,050218,000.0,W*65
$GPGGA,033537.607,2039.205,N,10323.579,W,1,12,1.0,0.0,M,0.0,M,,*7B
$GPGSA,A,3,01,02,03,04,05,06,07,08,09,10,11,12,1.0,1.0,1.0*30
$GPRMC,033537.607,A,2039.205,N,10323.579,W,038.9,359.2,050218,000.0,W*6E
$GPGGA,033538.607,2039.216,N,10323.579,W,1,12,1.0,0.0,M,0.0,M,,*76
$GPGSA,A,3,01,02,03,04,05,06,07,08,09,10,11,12,1.0,1.0,1.0*30
$GPRMC,033538.607,A,2039.216,N,10323.579,W,038.9,359.2,050218,000.0,W*63
$GPGGA,033539.607,2039.227,N,10323.579,W,1,12,1.0,0.0,M,0.0,M,,*75
$GPGSA,A,3,01,02,03,04,05,06,07,08,09,10,11,12,1.0,1.0,1.0*30
$GPRMC,033539.607,A,2039.227,N,10323.579,W,038.9,359.2,050218,000.0,W*60
$GPGGA,033540.607,2039.238,N,10323.579,W,1,12,1.0,0.0,M,0.0,M,,*75
$GPGSA,A,3,01,02,03,04,05,06,07,08,09,10,11,12,1.0,1.0,1.0*30
$GPRMC,033540.607,A,2039.238,N,10323.579,W,038.9,019.4,050218,000.0,W*61
$GPGGA,033541.607,2039.248,N,10323.576,W,1,12,1.0,0.0,M,0.0,M,,*7C
$GPGSA,A,3,01,02,03,04,05,06,07,08,09,10,11,12,1.0,1.0,1.0*30
$GPRMC,033541.607,A,2039.248,N,10323.576,W,038.9,019.4,050218,000.0,W*68
$GPGGA,033542.607,2039.258,N,10323.572,W,1,12,1.0,0.0,M,0.0,M,,*7A
$GPGSA,A,3,01,02,03,04,05,06,07,08,09,10,11,12,1.0,1.0,1.0*30
$GPRMC,033542.607,A,2039.258,N,10323.572,W,038.9,073.4,050218,000.0,W*62
$GPGGA,033543.607,2039.261,N,10323.561,W,1,12,1.0,0.0,M,0.0,M,,*73
$GPGSA,A,3,01,02,03,04,05,06,07,08,09,10,11,12,1.0,1.0,1.0*30
$GPRMC,033543.607,A,2039.261,N,10323.561,W,038.9,073.4,050218,000.0,W*6B
$GPGGA,033544.607,2039.265,N,10323.550,W,1,12,1.0,0.0,M,0.0,M,,*72
$GPGSA,A,3,01,02,03,04,05,06,07,08,09,10,11,12,1.0,1.0,1.0*30
$GPRMC,033544.607,A,2039.265,N,10323.550,W,038.9,073.4,050218,000.0,W*6A
$GPGGA,033545.607,2039.268,N,10323.539,W,1,12,1.0,0.0,M,0.0,M,,*71
$GPGSA,A,3,01,02,03,04,05,06,07,08,09,10,11,12,1.0,1.0,1.0*30
$GPRMC,033545.607,A,2039.268,N,10323.539,W,038.9,073.4,050218,000.0,W*69
$GPGGA,033546.607,2039.271,N,10323.528,W,1,12,1.0,0.0,M,0.0,M,,*7A
$GPGSA,A,3,01,02,03,04,05,06,07,08,09,10,11,12,1.0,1.0,1.0*30
$GPRMC,033546.607,A,2039.271,N,10323.528,W,038.9,073.4,050218,000.0,W*62
$GPGGA,033547.607,2039.275,N,10323.517,W,1,12,1.0,0.0,M,0.0,M,,*73
$GPGSA,A,3,01,02,03,04,05,06,07,08,09,10,11,12,1.0,1.0,1.0*30
$GPRMC,033547.607,A,2039.275,N,10323.517,W,038.9,073.4,050218,000.0,W*6B
$GPGGA,033548.607,2039.278,N,10323.506,W,1,12,1.0,0.0,M,0.0,M,,*71
$GPGSA,A,3,01,02,03,04,05,06,07,08,09,10,11,12,1.0,1.0,1.0*30
$GPRMC,033548.607,A,2039.278,N,10323.506,W,038.9,073.4,050218,000.0,W*69
$GPGGA,033549.607,2039.281,N,10323.495,W,1,12,1.0,0.0,M,0.0,M,,*7D
$GPGSA,A,3,01,02,03,04,05,06,07,08,09,10,11,12,1.0,1.0,1.0*30
$GPRMC,033549.607,A,2039.281,N,10323.495,W,038.9,073.4,050218,000.0,W*65
